[
  {
    "university": {
      "university": "AECC University College",
      "Location": "Bournemouth",
      "Established": "– (1965)",
      "Number of students": "-",
      "Tuition fee": "£9,250",
      "Degree powers": "Taught",
      "location": {
        "lat": 50.72728189999999,
        "lng": -1.8286846
      }
    }
  },
  {
    "university": {
      "university": "Anglia Ruskin University",
      "Location": "Cambridge, Chelmsford, Peterborough",
      "Established": "1992 (1858)",
      "Number of students": "22,245",
      "Tuition fee": "£9,250",
      "Degree powers": "Full",
      "location": {
        "lat": 52.20326719999999,
        "lng": 0.1345112
      }
    }
  },
  {
    "university": {
      "university": "Arden University",
      "Location": "Coventry (distance learning)",
      "Established": "2015 (1990)",
      "Number of students": "8,000[7]",
      "Tuition fee": "- (private)",
      "Degree powers": "Taught",
      "location": {
        "lat": 52.369806,
        "lng": -1.4677799
      }
    }
  },
  {
    "university": {
      "university": "Arts University Bournemouth",
      "Location": "Poole",
      "Established": "2012 (1885)",
      "Number of students": "3,315",
      "Tuition fee": "£9,250",
      "Degree powers": "Taught",
      "location": {
        "lat": 50.74100000000001,
        "lng": -1.897931
      }
    }
  },
  {
    "university": {
      "university": "University of the Arts London",
      "Location": "London",
      "Established": "2004",
      "Number of students": "18,290",
      "Tuition fee": "£9,250",
      "Degree powers": "Full",
      "location": {
        "lat": 51.5177902,
        "lng": -0.1165424
      }
    }
  },
  {
    "university": {
      "university": "Aston University",
      "Location": "Birmingham",
      "Established": "1966 (1895)",
      "Number of students": "13,610",
      "Tuition fee": "£9,250",
      "Degree powers": "Full",
      "location": {
        "lat": 52.48685839999999,
        "lng": -1.8882174
      }
    }
  },
  {
    "university": {
      "university": "University of Bath",
      "Location": "Bath",
      "Established": "1966",
      "Number of students": "16,910",
      "Tuition fee": "£9,250",
      "Degree powers": "Full",
      "location": {
        "lat": 51.3782228,
        "lng": -2.3263987
      }
    }
  },
  {
    "university": {
      "university": "Bath Spa University",
      "Location": "Bath",
      "Established": "2005 (1852)",
      "Number of students": "7,980",
      "Tuition fee": "£9,250",
      "Degree powers": "Full",
      "location": {
        "lat": 51.3755553,
        "lng": -2.4382603
      }
    }
  },
  {
    "university": {
      "university": "University of Bedfordshire",
      "Location": "Bedford, Luton, Milton Keynes",
      "Established": "1993",
      "Number of students": "14,000",
      "Tuition fee": "£9,250",
      "Degree powers": "Full",
      "location": {
        "lat": 51.8778602,
        "lng": -0.4092921
      }
    }
  },
  {
    "university": {
      "university": "University of Birmingham",
      "Location": "Birmingham",
      "Established": "1900",
      "Number of students": "34,835",
      "Tuition fee": "£9,250",
      "Degree powers": "Full",
      "location": {
        "lat": 52.4508168,
        "lng": -1.9305135
      }
    }
  },
  {
    "university": {
      "university": "University College Birmingham[Note 3]",
      "Location": "Birmingham",
      "Established": "2012 (1957)",
      "Number of students": "4,935",
      "Tuition fee": "£9,076[8]",
      "Degree powers": "Taught",
      "location": {
        "lat": 52.4813851,
        "lng": -1.9063332
      }
    }
  },
  {
    "university": {
      "university": "Birmingham City University",
      "Location": "Birmingham",
      "Established": "1992 (1843)",
      "Number of students": "24,130",
      "Tuition fee": "£9,250",
      "Degree powers": "Full",
      "location": {
        "lat": 52.4829338,
        "lng": -1.8830502
      }
    }
  },
  {
    "university": {
      "university": "Bishop Grosseteste University",
      "Location": "Lincoln",
      "Established": "2012 (1862)",
      "Number of students": "2,225",
      "Tuition fee": "£9,250",
      "Degree powers": "Taught",
      "location": {
        "lat": 53.24382259999999,
        "lng": -0.5364247
      }
    }
  },
  {
    "university": {
      "university": "University of Bolton",
      "Location": "Bolton",
      "Established": "2004 (1982)",
      "Number of students": "6,425",
      "Tuition fee": "£9,250",
      "Degree powers": "Full",
      "location": {
        "lat": 53.57287899999999,
        "lng": -2.437932
      }
    }
  },
  {
    "university": {
      "university": "Bournemouth University",
      "Location": "Bournemouth, Poole",
      "Established": "1992",
      "Number of students": "20,200",
      "Tuition fee": "£9,250",
      "Degree powers": "Full",
      "location": {
        "lat": 50.74244729999999,
        "lng": -1.8961022
      }
    }
  },
  {
    "university": {
      "university": "BPP University",
      "Location": "Abingdon, Birmingham, Bristol, Cambridge, Leeds, Liverpool, London, Manchester",
      "Established": "2013 (1992)",
      "Number of students": "6,780[9]",
      "Tuition fee": "- (private)",
      "Degree powers": "Taught",
      "location": {
        "lat": 52.4831671,
        "lng": -1.8955753
      }
    }
  },
  {
    "university": {
      "university": "University of Bradford",
      "Location": "Bradford",
      "Established": "1966 (1957)",
      "Number of students": "10,960",
      "Tuition fee": "£9,250",
      "Degree powers": "Full",
      "location": {
        "lat": 53.79154879999999,
        "lng": -1.766240199999999
      }
    }
  },
  {
    "university": {
      "university": "University of Brighton",
      "Location": "Brighton, Eastbourne, Hastings",
      "Established": "1992 (1859)",
      "Number of students": "21,655",
      "Tuition fee": "£9,250",
      "Degree powers": "Full",
      "location": {
        "lat": 50.8241451,
        "lng": -0.1355195
      }
    }
  },
  {
    "university": {
      "university": "University of Bristol",
      "Location": "Bristol",
      "Established": "1909 (1876)",
      "Number of students": "23,590",
      "Tuition fee": "£9,250",
      "Degree powers": "Full",
      "location": {
        "lat": 51.4584172,
        "lng": -2.6029792
      }
    }
  },
  {
    "university": {
      "university": "Brunel University London",
      "Location": "Uxbridge (London)",
      "Established": "1966",
      "Number of students": "13,130",
      "Tuition fee": "£9,250",
      "Degree powers": "Full",
      "location": {
        "lat": 51.5324044,
        "lng": -0.4729930999999999
      }
    }
  },
  {
    "university": {
      "university": "University of Buckingham",
      "Location": "Buckingham",
      "Established": "1983 (1973)",
      "Number of students": "2,520",
      "Tuition fee": "£12,444 (private)",
      "Degree powers": "Full",
      "location": {
        "lat": 51.9953909,
        "lng": -0.9916666
      }
    }
  },
  {
    "university": {
      "university": "Buckinghamshire New University",
      "Location": "High Wycombe, Uxbridge (London)",
      "Established": "2007 (1999)",
      "Number of students": "8,870",
      "Tuition fee": "£7,8-9,250",
      "Degree powers": "Taught",
      "location": {
        "lat": 51.6279158,
        "lng": -0.7534042000000001
      }
    }
  },
  {
    "university": {
      "university": "University of Cambridge",
      "Location": "Cambridge",
      "Established": "1209",
      "Number of students": "19,955",
      "Tuition fee": "£9,250",
      "Degree powers": "Full",
      "location": {
        "lat": 52.20426659999999,
        "lng": 0.1149085
      }
    }
  },
  {
    "university": {
      "university": "Canterbury Christ Church University",
      "Location": "Broadstairs, Canterbury, Medway, Tunbridge Wells",
      "Established": "2005 (1977)",
      "Number of students": "15,200",
      "Tuition fee": "£9,250",
      "Degree powers": "Full",
      "location": {
        "lat": 51.277939,
        "lng": 1.090659
      }
    }
  },
  {
    "university": {
      "university": "University of Central Lancashire",
      "Location": "Preston",
      "Established": "1992 (1828)",
      "Number of students": "24,160",
      "Tuition fee": "£9,250",
      "Degree powers": "Full",
      "location": {
        "lat": 53.7641378,
        "lng": -2.7092453
      }
    }
  },
  {
    "university": {
      "university": "University of Chester",
      "Location": "Chester, Warrington",
      "Established": "2005 (1839)",
      "Number of students": "15,325",
      "Tuition fee": "£9,250",
      "Degree powers": "Full",
      "location": {
        "lat": 53.20027109999999,
        "lng": -2.8991705
      }
    }
  },
  {
    "university": {
      "university": "University of Chichester",
      "Location": "Chichester",
      "Established": "2005 (1977)",
      "Number of students": "5,540",
      "Tuition fee": "£6,000–9,250",
      "Degree powers": "Full",
      "location": {
        "lat": 50.8450307,
        "lng": -0.7728918
      }
    }
  },
  {
    "university": {
      "university": "Coventry University",
      "Location": "Coventry",
      "Established": "1992 (1843)",
      "Number of students": "31,690",
      "Tuition fee": "£6,009–9,250",
      "Degree powers": "Full",
      "location": {
        "lat": 52.4071747,
        "lng": -1.5037461
      }
    }
  },
  {
    "university": {
      "university": "Cranfield University",
      "Location": "Cranfield, Shrivenham",
      "Established": "1993 (1946)",
      "Number of students": "3,935",
      "Tuition fee": "p/g only",
      "Degree powers": "Full",
      "location": {
        "lat": 52.0746136,
        "lng": -0.6282833000000001
      }
    }
  },
  {
    "university": {
      "university": "University for the Creative Arts",
      "Location": "Canterbury, Epsom, Farnham, Maidstone, Rochester",
      "Established": "2005",
      "Number of students": "6,180",
      "Tuition fee": "£9,250",
      "Degree powers": "Taught",
      "location": {
        "lat": 51.2150866,
        "lng": -0.8053730000000001
      }
    }
  },
  {
    "university": {
      "university": "University of Cumbria",
      "Location": "Ambleside, Barrow, Carlisle, Lancaster, Penrith, Tower Hamlets (London)",
      "Established": "2007",
      "Number of students": "8,635",
      "Tuition fee": "£9,250",
      "Degree powers": "Taught",
      "location": {
        "lat": 54.89087599999999,
        "lng": -2.922234
      }
    }
  },
  {
    "university": {
      "university": "De Montfort University",
      "Location": "Leicester",
      "Established": "1992 (1969)",
      "Number of students": "23,205",
      "Tuition fee": "£9,250",
      "Degree powers": "Full",
      "location": {
        "lat": 52.6298007,
        "lng": -1.1396424
      }
    }
  },
  {
    "university": {
      "university": "University of Derby",
      "Location": "Derby",
      "Established": "1992 (1977)",
      "Number of students": "17,585",
      "Tuition fee": "£9,250",
      "Degree powers": "Full",
      "location": {
        "lat": 52.9378778,
        "lng": -1.4972811
      }
    }
  },
  {
    "university": {
      "university": "Durham University",
      "Location": "Durham, Stockton",
      "Established": "1832",
      "Number of students": "18,385",
      "Tuition fee": "£9,250",
      "Degree powers": "Full",
      "location": {
        "lat": 54.7649859,
        "lng": -1.5782029
      }
    }
  },
  {
    "university": {
      "university": "University of East Anglia",
      "Location": "Norwich",
      "Established": "1963",
      "Number of students": "17,195",
      "Tuition fee": "£9,250",
      "Degree powers": "Full",
      "location": {
        "lat": 52.6219215,
        "lng": 1.2391761
      }
    }
  },
  {
    "university": {
      "university": "University of East London",
      "Location": "Newham (London)",
      "Established": "1992 (1970)",
      "Number of students": "13,215",
      "Tuition fee": "£9,250",
      "Degree powers": "Full",
      "location": {
        "lat": 51.5076024,
        "lng": 0.0650809
      }
    }
  },
  {
    "university": {
      "university": "Edge Hill University",
      "Location": "Ormskirk",
      "Established": "2006 (1959)",
      "Number of students": "15,220",
      "Tuition fee": "£9,250",
      "Degree powers": "Full",
      "location": {
        "lat": 53.5596834,
        "lng": -2.8738498
      }
    }
  },
  {
    "university": {
      "university": "University of Essex",
      "Location": "Colchester",
      "Established": "1964",
      "Number of students": "14,585",
      "Tuition fee": "£9,250",
      "Degree powers": "Full",
      "location": {
        "lat": 51.87772589999999,
        "lng": 0.9472069000000001
      }
    }
  },
  {
    "university": {
      "university": "University College of Estate Management",
      "Location": "Reading",
      "Established": "– (1919)",
      "Number of students": "–",
      "Tuition fee": "- (private)",
      "Degree powers": "Taught",
      "location": {
        "lat": 51.45323390000001,
        "lng": -0.9635648
      }
    }
  },
  {
    "university": {
      "university": "University of Exeter",
      "Location": "Exeter, Penryn",
      "Established": "1955 (1922)",
      "Number of students": "23,175",
      "Tuition fee": "£9,250",
      "Degree powers": "Full",
      "location": {
        "lat": 50.7371369,
        "lng": -3.5351475
      }
    }
  },
  {
    "university": {
      "university": "Falmouth University",
      "Location": "Falmouth, Penryn",
      "Established": "2012 (1902)",
      "Number of students": "5,385",
      "Tuition fee": "£9,250",
      "Degree powers": "Taught",
      "location": {
        "lat": 50.1712678,
        "lng": -5.1238373
      }
    }
  },
  {
    "university": {
      "university": "University of Gloucestershire",
      "Location": "Cheltenham, Gloucester",
      "Established": "2001 (1998)",
      "Number of students": "8,505",
      "Tuition fee": "£9,250",
      "Degree powers": "Full",
      "location": {
        "lat": 51.8881379,
        "lng": -2.0874135
      }
    }
  },
  {
    "university": {
      "university": "University of Greenwich",
      "Location": "Chatham, Greenwich (London)",
      "Established": "1992 (1890)",
      "Number of students": "19,915",
      "Tuition fee": "£9,250",
      "Degree powers": "Full",
      "location": {
        "lat": 51.4829308,
        "lng": -0.006994999999999999
      }
    }
  },
  {
    "university": {
      "university": "Harper Adams University",
      "Location": "Edgmond",
      "Established": "2012 (1901)",
      "Number of students": "5,410",
      "Tuition fee": "£9,250",
      "Degree powers": "Full",
      "location": {
        "lat": 52.7794512,
        "lng": -2.4271346
      }
    }
  },
  {
    "university": {
      "university": "University of Hertfordshire",
      "Location": "Hatfield",
      "Established": "1992 (1952)",
      "Number of students": "24,580",
      "Tuition fee": "£9,250",
      "Degree powers": "Full",
      "location": {
        "lat": 51.76136839999999,
        "lng": -0.2482228
      }
    }
  },
  {
    "university": {
      "university": "University of Huddersfield",
      "Location": "Huddersfield",
      "Established": "1992 (1825)",
      "Number of students": "18,280",
      "Tuition fee": "£9,250",
      "Degree powers": "Full",
      "location": {
        "lat": 53.643727,
        "lng": -1.7787888
      }
    }
  },
  {
    "university": {
      "university": "University of Hull",
      "Location": "Hull, Scarborough",
      "Established": "1954 (1927)",
      "Number of students": "16,530",
      "Tuition fee": "£9,250",
      "Degree powers": "Full",
      "location": {
        "lat": 53.773162,
        "lng": -0.3677464
      }
    }
  },
  {
    "university": {
      "university": "Imperial College London[Note 4]",
      "Location": "South Kensington (London)",
      "Established": "2007 (1907)",
      "Number of students": "17,690",
      "Tuition fee": "£9,250",
      "Degree powers": "Full",
      "location": {
        "lat": 51.49879970000001,
        "lng": -0.1748772
      }
    }
  },
  {
    "university": {
      "university": "Keele University",
      "Location": "Keele",
      "Established": "1962 (1949)",
      "Number of students": "10,600",
      "Tuition fee": "£9,250",
      "Degree powers": "Full",
      "location": {
        "lat": 53.00343729999999,
        "lng": -2.272053000000001
      }
    }
  },
  {
    "university": {
      "university": "University of Kent",
      "Location": "Canterbury, Medway, Tonbridge, Athens, Brussels, Paris, Rome",
      "Established": "1965",
      "Number of students": "20,220",
      "Tuition fee": "£9,250",
      "Degree powers": "Full",
      "location": {
        "lat": 51.297233,
        "lng": 1.0632172
      }
    }
  },
  {
    "university": {
      "university": "Kingston University",
      "Location": "Kingston upon Thames",
      "Established": "1992 (1899)",
      "Number of students": "19,470",
      "Tuition fee": "£9,250",
      "Degree powers": "Full",
      "location": {
        "lat": 51.4032431,
        "lng": -0.3034882
      }
    }
  },
  {
    "university": {
      "university": "Lancaster University",
      "Location": "Lancaster",
      "Established": "1964",
      "Number of students": "13,615",
      "Tuition fee": "£9,250",
      "Degree powers": "Full",
      "location": {
        "lat": 54.01039420000001,
        "lng": -2.7877294
      }
    }
  },
  {
    "university": {
      "university": "University of Law",
      "Location": "Birmingham, Bristol, Chester, Guildford, Leeds, London",
      "Established": "2012",
      "Number of students": "16,000[citation needed]",
      "Tuition fee": "£6,165-9,000[10]",
      "Degree powers": "Taught",
      "location": {
        "lat": 52.48867399999999,
        "lng": -1.9076201
      }
    }
  },
  {
    "university": {
      "university": "University of Leeds",
      "Location": "Leeds",
      "Established": "1904",
      "Number of students": "33,300",
      "Tuition fee": "£9,250",
      "Degree powers": "Full",
      "location": {
        "lat": 53.8066815,
        "lng": -1.5550328
      }
    }
  },
  {
    "university": {
      "university": "Leeds Arts University",
      "Location": "Leeds",
      "Established": "2017 (1846)[11]",
      "Number of students": "1,425",
      "Tuition fee": "",
      "Degree powers": "Taught",
      "location": {
        "lat": 53.808845,
        "lng": -1.551577
      }
    }
  },
  {
    "university": {
      "university": "Leeds Beckett University",
      "Location": "Leeds",
      "Established": "1992 (1970)",
      "Number of students": "24,885",
      "Tuition fee": "£9,250",
      "Degree powers": "Full",
      "location": {
        "lat": 53.80364249999999,
        "lng": -1.5474292
      }
    }
  },
  {
    "university": {
      "university": "Leeds Trinity University",
      "Location": "Leeds",
      "Established": "2012 (1966)",
      "Number of students": "3,625",
      "Tuition fee": "£9,250",
      "Degree powers": "Taught",
      "location": {
        "lat": 53.8483885,
        "lng": -1.6455383
      }
    }
  },
  {
    "university": {
      "university": "University of Leicester",
      "Location": "Leicester",
      "Established": "1957 (1921)",
      "Number of students": "16,800",
      "Tuition fee": "£9,250",
      "Degree powers": "Full",
      "location": {
        "lat": 52.6211393,
        "lng": -1.1246325
      }
    }
  },
  {
    "university": {
      "university": "University of Lincoln",
      "Location": "Lincoln",
      "Established": "1992",
      "Number of students": "14,105",
      "Tuition fee": "£9,250",
      "Degree powers": "Full",
      "location": {
        "lat": 53.2279107,
        "lng": -0.5501933
      }
    }
  },
  {
    "university": {
      "university": "University of Liverpool",
      "Location": "Liverpool",
      "Established": "1903",
      "Number of students": "27,070",
      "Tuition fee": "£9,250",
      "Degree powers": "Full",
      "location": {
        "lat": 53.40478239999999,
        "lng": -2.965299
      }
    }
  },
  {
    "university": {
      "university": "Liverpool Hope University",
      "Location": "Liverpool",
      "Established": "2005 (1844)",
      "Number of students": "5,240",
      "Tuition fee": "£9,250",
      "Degree powers": "Full",
      "location": {
        "lat": 53.3908007,
        "lng": -2.8922988
      }
    }
  },
  {
    "university": {
      "university": "Liverpool John Moores University",
      "Location": "Liverpool",
      "Established": "1992 (1892)",
      "Number of students": "22,445",
      "Tuition fee": "£9,250",
      "Degree powers": "Full",
      "location": {
        "lat": 53.40537,
        "lng": -2.9725544
      }
    }
  },
  {
    "university": {
      "university": "University of London",
      "Location": "London, Paris",
      "Established": "1836",
      "Number of students": "210[Note 5]",
      "Tuition fee": "- (Fees set by colleges)",
      "Degree powers": "Full",
      "location": {
        "lat": 51.5229378,
        "lng": -0.1308206
      }
    }
  },
  {
    "university": {
      "university": "University of London→ Birkbeck, University of London",
      "Location": "London",
      "Established": "– (1823)",
      "Number of students": "12,915",
      "Tuition fee": "£9,250",
      "Degree powers": "Full, London",
      "location": {
        "lat": 51.5219696,
        "lng": -0.1300479
      }
    }
  },
  {
    "university": {
      "university": "University of London→ City, University of London",
      "Location": "London",
      "Established": "– (1894)",
      "Number of students": "19,405",
      "Tuition fee": "£9,250",
      "Degree powers": "Full, London",
      "location": {
        "lat": 51.5278409,
        "lng": -0.102509
      }
    }
  },
  {
    "university": {
      "university": "University of London→ Courtauld Institute of Art",
      "Location": "London",
      "Established": "– (1932)",
      "Number of students": "495",
      "Tuition fee": "£9,250",
      "Degree powers": "London",
      "location": {
        "lat": 51.5116015,
        "lng": -0.1173968
      }
    }
  },
  {
    "university": {
      "university": "University of London→ Goldsmiths, University of London",
      "Location": "London",
      "Established": "– (1904)",
      "Number of students": "9,345",
      "Tuition fee": "£9,250",
      "Degree powers": "Full, London",
      "location": {
        "lat": 51.47427099999999,
        "lng": -0.03540799999999999
      }
    }
  },
  {
    "university": {
      "university": "University of London→ Heythrop College",
      "Location": "London",
      "Established": "– (1614)",
      "Number of students": "425",
      "Tuition fee": "No longer admitting students[12]",
      "Degree powers": "Full, London",
      "location": {
        "lat": 51.4992505,
        "lng": -0.1903322
      }
    }
  },
  {
    "university": {
      "university": "University of London→ Institute of Cancer Research",
      "Location": "London",
      "Established": "– (1909)",
      "Number of students": "275",
      "Tuition fee": "p/g only",
      "Degree powers": "London",
      "location": {
        "lat": 51.34467000000001,
        "lng": -0.189075
      }
    }
  },
  {
    "university": {
      "university": "University of London→ King's College London",
      "Location": "London",
      "Established": "– (1829) founding college",
      "Number of students": "30,565",
      "Tuition fee": "£9,250",
      "Degree powers": "Full, London",
      "location": {
        "lat": 51.51148639999999,
        "lng": -0.115997
      }
    }
  },
  {
    "university": {
      "university": "University of London→ London Business School",
      "Location": "London",
      "Established": "– (1964)",
      "Number of students": "2,060",
      "Tuition fee": "p/g only",
      "Degree powers": "Full, London",
      "location": {
        "lat": 51.5261552,
        "lng": -0.160668
      }
    }
  },
  {
    "university": {
      "university": "University of London→ London School of Economics",
      "Location": "London",
      "Established": "– (1895)",
      "Number of students": "11,210",
      "Tuition fee": "£9,250",
      "Degree powers": "Full, London",
      "location": {
        "lat": 51.5144388,
        "lng": -0.1164513
      }
    }
  },
  {
    "university": {
      "university": "University of London→ London School of Hygiene & Tropical Medicine",
      "Location": "London",
      "Established": "– (1899)",
      "Number of students": "1,345",
      "Tuition fee": "p/g only",
      "Degree powers": "Full, London",
      "location": {
        "lat": 51.5206266,
        "lng": -0.1300053
      }
    }
  },
  {
    "university": {
      "university": "University of London→ Queen Mary, University of London",
      "Location": "London",
      "Established": "– (1887)",
      "Number of students": "18,890",
      "Tuition fee": "£9,250",
      "Degree powers": "Full, London",
      "location": {
        "lat": 51.5240671,
        "lng": -0.04037449999999999
      }
    }
  },
  {
    "university": {
      "university": "University of London→ Royal Academy of Music",
      "Location": "London",
      "Established": "– (1822)",
      "Number of students": "820",
      "Tuition fee": "£9,250",
      "Degree powers": "Taught, London",
      "location": {
        "lat": 51.5233715,
        "lng": -0.1517215
      }
    }
  },
  {
    "university": {
      "university": "University of London→ Royal Central School of Speech and Drama",
      "Location": "London",
      "Established": "– (1906)",
      "Number of students": "1,100",
      "Tuition fee": "£9,250",
      "Degree powers": "London",
      "location": {
        "lat": 51.54433439999999,
        "lng": -0.1742044999999999
      }
    }
  },
  {
    "university": {
      "university": "University of London→ Royal Holloway, University of London",
      "Location": "Surrey",
      "Established": "– (1849)",
      "Number of students": "10,325",
      "Tuition fee": "£9,250",
      "Degree powers": "Full, London",
      "location": {
        "lat": 51.425673,
        "lng": -0.5630625
      }
    }
  },
  {
    "university": {
      "university": "University of London→ Royal Veterinary College",
      "Location": "London, Hertfordshire",
      "Established": "– (1791)",
      "Number of students": "2,375",
      "Tuition fee": "£9,250",
      "Degree powers": "Full, London",
      "location": {
        "lat": 51.5366976,
        "lng": -0.1339696
      }
    }
  },
  {
    "university": {
      "university": "University of London→ St George's, University of London",
      "Location": "London",
      "Established": "– (1733)",
      "Number of students": "4,855",
      "Tuition fee": "£9,250",
      "Degree powers": "Full, London",
      "location": {
        "lat": 51.42740099999999,
        "lng": -0.1749356
      }
    }
  },
  {
    "university": {
      "university": "University of London→ School of Oriental and African Studies",
      "Location": "London",
      "Established": "– (1916)",
      "Number of students": "6,360",
      "Tuition fee": "£9,250",
      "Degree powers": "Full, London",
      "location": {
        "lat": 51.52235,
        "lng": -0.129259
      }
    }
  },
  {
    "university": {
      "university": "University of London→ University College London",
      "Location": "London",
      "Established": "– (1826) founding college",
      "Number of students": "37,905",
      "Tuition fee": "£9,250",
      "Degree powers": "Full, London",
      "location": {
        "lat": 51.5245592,
        "lng": -0.1340401
      }
    }
  },
  {
    "university": {
      "university": "London Institute of Banking & Finance[Note 6]",
      "Location": "London",
      "Established": "– (1879)",
      "Number of students": "-",
      "Tuition fee": "- (private)",
      "Degree powers": "Taught",
      "location": {
        "lat": 51.509645,
        "lng": -0.084088
      }
    }
  },
  {
    "university": {
      "university": "London Metropolitan University",
      "Location": "London",
      "Established": "2002",
      "Number of students": "12,145",
      "Tuition fee": "£6,750-9,250",
      "Degree powers": "Full",
      "location": {
        "lat": 51.55161699999999,
        "lng": -0.110715
      }
    }
  },
  {
    "university": {
      "university": "London South Bank University",
      "Location": "Southwark (London)",
      "Established": "1992 (1892)",
      "Number of students": "17,985",
      "Tuition fee": "£9,000",
      "Degree powers": "Full",
      "location": {
        "lat": 51.4979806,
        "lng": -0.1023327
      }
    }
  },
  {
    "university": {
      "university": "Loughborough University",
      "Location": "Loughborough",
      "Established": "1966",
      "Number of students": "17,130",
      "Tuition fee": "£9,250",
      "Degree powers": "Full",
      "location": {
        "lat": 52.7650814,
        "lng": -1.2320534
      }
    }
  },
  {
    "university": {
      "university": "University of Manchester",
      "Location": "Manchester",
      "Established": "2004 (1824)",
      "Number of students": "40,490",
      "Tuition fee": "£9,250",
      "Degree powers": "Full",
      "location": {
        "lat": 53.4668498,
        "lng": -2.2338837
      }
    }
  },
  {
    "university": {
      "university": "Manchester Metropolitan University",
      "Location": "Manchester",
      "Established": "1992 (1970)",
      "Number of students": "33,010",
      "Tuition fee": "£9,250",
      "Degree powers": "Full",
      "location": {
        "lat": 53.4704767,
        "lng": -2.2394124
      }
    }
  },
  {
    "university": {
      "university": "Middlesex University",
      "Location": "Hendon (London)",
      "Established": "1992 (1973)",
      "Number of students": "19,505",
      "Tuition fee": "£9,250",
      "Degree powers": "Full",
      "location": {
        "lat": 51.59013789999999,
        "lng": -0.228914
      }
    }
  },
  {
    "university": {
      "university": "Newcastle University",
      "Location": "Newcastle",
      "Established": "1963 (1834)",
      "Number of students": "24,980",
      "Tuition fee": "£9,250",
      "Degree powers": "Full",
      "location": {
        "lat": 54.9791871,
        "lng": -1.6146608
      }
    }
  },
  {
    "university": {
      "university": "Newman University",
      "Location": "Birmingham",
      "Established": "2012 (1968)",
      "Number of students": "2,830",
      "Tuition fee": "£9,250",
      "Degree powers": "Taught",
      "location": {
        "lat": 52.4329957,
        "lng": -1.9936128
      }
    }
  },
  {
    "university": {
      "university": "University of Northampton",
      "Location": "Northampton",
      "Established": "2005 (1975)",
      "Number of students": "12,850",
      "Tuition fee": "£9,250",
      "Degree powers": "Full",
      "location": {
        "lat": 52.27360729999999,
        "lng": -0.8824721999999999
      }
    }
  },
  {
    "university": {
      "university": "Northumbria University",
      "Location": "Newcastle",
      "Established": "1992 (1892)",
      "Number of students": "26,675",
      "Tuition fee": "£9,250",
      "Degree powers": "Full",
      "location": {
        "lat": 54.979071,
        "lng": -1.6081362
      }
    }
  },
  {
    "university": {
      "university": "Norwich University of the Arts",
      "Location": "Norwich",
      "Established": "2012 (1845)",
      "Number of students": "2,180",
      "Tuition fee": "£9,250",
      "Degree powers": "Taught",
      "location": {
        "lat": 52.63031179999999,
        "lng": 1.2966966
      }
    }
  },
  {
    "university": {
      "university": "University of Nottingham",
      "Location": "Nottingham",
      "Established": "1948 (1881)",
      "Number of students": "32,515",
      "Tuition fee": "£9,250",
      "Degree powers": "Full",
      "location": {
        "lat": 52.93863599999999,
        "lng": -1.1951582
      }
    }
  },
  {
    "university": {
      "university": "Nottingham Trent University",
      "Location": "Nottingham",
      "Established": "1992 (1843)",
      "Number of students": "29,370",
      "Tuition fee": "£9,250",
      "Degree powers": "Full",
      "location": {
        "lat": 52.9580712,
        "lng": -1.1540226
      }
    }
  },
  {
    "university": {
      "university": "Open University",
      "Location": "Milton Keynes",
      "Established": "1969",
      "Number of students": "101,490[Note 7]",
      "Tuition fee": "-",
      "Degree powers": "Full",
      "location": {
        "lat": 52.0252055,
        "lng": -0.7090258
      }
    }
  },
  {
    "university": {
      "university": "University College of Osteopathy",
      "Location": "London",
      "Established": "– (1917)",
      "Number of students": "-",
      "Tuition fee": "-",
      "Degree powers": "Taught",
      "location": {
        "lat": 51.5002045,
        "lng": -0.09467760000000001
      }
    }
  },
  {
    "university": {
      "university": "University of Oxford",
      "Location": "Oxford",
      "Established": "1096",
      "Number of students": "24,650",
      "Tuition fee": "£9,250",
      "Degree powers": "Full",
      "location": {
        "lat": 51.7548164,
        "lng": -1.2543668
      }
    }
  },
  {
    "university": {
      "university": "Oxford Brookes University",
      "Location": "Oxford",
      "Established": "1992 (1970)",
      "Number of students": "17,805",
      "Tuition fee": "£9,250",
      "Degree powers": "Full",
      "location": {
        "lat": 51.755011,
        "lng": -1.224225
      }
    }
  },
  {
    "university": {
      "university": "Plymouth University",
      "Location": "Plymouth",
      "Established": "1992 (1862)[13][14]",
      "Number of students": "21,645",
      "Tuition fee": "£9,250",
      "Degree powers": "Full",
      "location": {
        "lat": 50.3761866,
        "lng": -4.139491899999999
      }
    }
  },
  {
    "university": {
      "university": "University of Portsmouth",
      "Location": "Portsmouth",
      "Established": "1992 (1960)",
      "Number of students": "23,505",
      "Tuition fee": "£9,250",
      "Degree powers": "Full",
      "location": {
        "lat": 50.7951866,
        "lng": -1.0935923
      }
    }
  },
  {
    "university": {
      "university": "Ravensbourne University London",
      "Location": "London",
      "Established": "2018 (1962)",
      "Number of students": "-",
      "Tuition fee": "-",
      "Degree powers": "Taught",
      "location": {
        "lat": 51.50167279999999,
        "lng": 0.005749600000000001
      }
    }
  },
  {
    "university": {
      "university": "University of Reading",
      "Location": "Reading",
      "Established": "1926 (1892)",
      "Number of students": "15,840",
      "Tuition fee": "£9,250",
      "Degree powers": "Full",
      "location": {
        "lat": 51.4414205,
        "lng": -0.9418157
      }
    }
  },
  {
    "university": {
      "university": "Regent's University London",
      "Location": "London",
      "Established": "2013 (1984)",
      "Number of students": "–",
      "Tuition fee": "- (private)",
      "Degree powers": "Taught",
      "location": {
        "lat": 51.52576579999999,
        "lng": -0.1551294
      }
    }
  },
  {
    "university": {
      "university": "Roehampton University",
      "Location": "Roehampton (London)",
      "Established": "2004 (1841)",
      "Number of students": "10,205",
      "Tuition fee": "£9,250",
      "Degree powers": "Taught",
      "location": {
        "lat": 51.4579866,
        "lng": -0.2432869
      }
    }
  },
  {
    "university": {
      "university": "Royal Agricultural University",
      "Location": "Cirencester",
      "Established": "2012 (1845)",
      "Number of students": "1,280",
      "Tuition fee": "£9,250",
      "Degree powers": "Taught",
      "location": {
        "lat": 51.709324,
        "lng": -1.994646
      }
    }
  },
  {
    "university": {
      "university": "University of Salford",
      "Location": "Salford",
      "Established": "1967",
      "Number of students": "19,995",
      "Tuition fee": "£9,250",
      "Degree powers": "Full",
      "location": {
        "lat": 53.4864432,
        "lng": -2.273396
      }
    }
  },
  {
    "university": {
      "university": "University of Sheffield",
      "Location": "Sheffield",
      "Established": "1905",
      "Number of students": "28,715",
      "Tuition fee": "£9,250",
      "Degree powers": "Full",
      "location": {
        "lat": 53.3809409,
        "lng": -1.4879469
      }
    }
  },
  {
    "university": {
      "university": "Sheffield Hallam University",
      "Location": "Sheffield",
      "Established": "1992",
      "Number of students": "30,815",
      "Tuition fee": "£9,250",
      "Degree powers": "Full",
      "location": {
        "lat": 53.3780778,
        "lng": -1.466475
      }
    }
  },
  {
    "university": {
      "university": "University of Southampton",
      "Location": "Southampton",
      "Established": "1952 (1902)",
      "Number of students": "25,180",
      "Tuition fee": "£9,250",
      "Degree powers": "Full",
      "location": {
        "lat": 50.934189,
        "lng": -1.3956847
      }
    }
  },
  {
    "university": {
      "university": "Southampton Solent University",
      "Location": "Southampton",
      "Established": "2005 (1984)",
      "Number of students": "11,060",
      "Tuition fee": "£9,250",
      "Degree powers": "Full",
      "location": {
        "lat": 50.9086975,
        "lng": -1.4010889
      }
    }
  },
  {
    "university": {
      "university": "University of St Mark & St John",
      "Location": "Plymouth",
      "Established": "2012 (1923)",
      "Number of students": "2,415",
      "Tuition fee": "£9,250",
      "Degree powers": "Taught",
      "location": {
        "lat": 50.4197618,
        "lng": -4.1104325
      }
    }
  },
  {
    "university": {
      "university": "St Mary's University, Twickenham",
      "Location": "Strawberry Hill (London)",
      "Established": "2014 (1850)",
      "Number of students": "5,535",
      "Tuition fee": "£9,250",
      "Degree powers": "Taught",
      "location": {
        "lat": 51.437026,
        "lng": -0.3350701
      }
    }
  },
  {
    "university": {
      "university": "Staffordshire University",
      "Location": "Lichfield, Shrewsbury, Stafford, Stoke",
      "Established": "1992",
      "Number of students": "14,910",
      "Tuition fee": "£9,250",
      "Degree powers": "Full",
      "location": {
        "lat": 53.00906579999999,
        "lng": -2.176138299999999
      }
    }
  },
  {
    "university": {
      "university": "University of Suffolk",
      "Location": "Ipswich, Bury St Edmunds, Great Yarmouth, Lowestoft",
      "Established": "2016 (2007)",
      "Number of students": "5,080",
      "Tuition fee": "£9,250",
      "Degree powers": "Taught",
      "location": {
        "lat": 52.0540292,
        "lng": 1.1644968
      }
    }
  },
  {
    "university": {
      "university": "University of Sunderland",
      "Location": "Sunderland",
      "Established": "1992 (1901)",
      "Number of students": "13,020",
      "Tuition fee": "£9,250",
      "Degree powers": "Full",
      "location": {
        "lat": 54.9117508,
        "lng": -1.373752
      }
    }
  },
  {
    "university": {
      "university": "University of Surrey",
      "Location": "Guildford",
      "Established": "1966 (1891)",
      "Number of students": "16,065",
      "Tuition fee": "£9,250",
      "Degree powers": "Full",
      "location": {
        "lat": 51.25718579999999,
        "lng": -0.0002693
      }
    }
  },
  {
    "university": {
      "university": "University of Sussex",
      "Location": "Falmer",
      "Established": "1961",
      "Number of students": "16,685",
      "Tuition fee": "£9,250",
      "Degree powers": "Full",
      "location": {
        "lat": 50.86708950000001,
        "lng": -0.08791399999999999
      }
    }
  },
  {
    "university": {
      "university": "Teesside University",
      "Location": "Darlington, Middlesbrough",
      "Established": "1992 (1930)",
      "Number of students": "18,555",
      "Tuition fee": "£9,250",
      "Degree powers": "Full",
      "location": {
        "lat": 54.5706383,
        "lng": -1.2352416
      }
    }
  },
  {
    "university": {
      "university": "University of Warwick",
      "Location": "Coventry",
      "Established": "1965",
      "Number of students": "25,045",
      "Tuition fee": "£9,250",
      "Degree powers": "Full",
      "location": {
        "lat": 52.37925250000001,
        "lng": -1.5614704
      }
    }
  },
  {
    "university": {
      "university": "University of West London",
      "Location": "Brentford, Ealing (both London), Reading",
      "Established": "1992",
      "Number of students": "10,390",
      "Tuition fee": "£9,250",
      "Degree powers": "Full",
      "location": {
        "lat": 51.50688040000001,
        "lng": -0.3033577
      }
    }
  },
  {
    "university": {
      "university": "University of the West of England",
      "Location": "Bristol",
      "Established": "1992 (1595)",
      "Number of students": "27,880",
      "Tuition fee": "£9,250",
      "Degree powers": "Full",
      "location": {
        "lat": 51.5002821,
        "lng": -2.5480446
      }
    }
  },
  {
    "university": {
      "university": "University of Westminster",
      "Location": "London",
      "Established": "1992 (1838)",
      "Number of students": "19,650",
      "Tuition fee": "£9,250",
      "Degree powers": "Full",
      "location": {
        "lat": 51.52058659999999,
        "lng": -0.141079
      }
    }
  },
  {
    "university": {
      "university": "University of Winchester",
      "Location": "Winchester",
      "Established": "2005 (1840)",
      "Number of students": "7,540",
      "Tuition fee": "£9,250",
      "Degree powers": "Full",
      "location": {
        "lat": 51.0597413,
        "lng": -1.3282474
      }
    }
  },
  {
    "university": {
      "university": "University of Wolverhampton",
      "Location": "Burton, Telford, Walsall, Wolverhampton",
      "Established": "1992 (1969)",
      "Number of students": "19,560",
      "Tuition fee": "£9,250[15]",
      "Degree powers": "Full",
      "location": {
        "lat": 52.58817699999999,
        "lng": -2.1274393
      }
    }
  },
  {
    "university": {
      "university": "University of Worcester",
      "Location": "Worcester",
      "Established": "1997",
      "Number of students": "10,745",
      "Tuition fee": "£9,250",
      "Degree powers": "Full",
      "location": {
        "lat": 52.1970053,
        "lng": -2.242825299999999
      }
    }
  },
  {
    "university": {
      "university": "Writtle University College",
      "Location": "Chelmsford",
      "Established": "– (1893)",
      "Number of students": "775",
      "Tuition fee": "£9,250",
      "Degree powers": "Taught",
      "location": {
        "lat": 51.736605,
        "lng": 0.4279639999999999
      }
    }
  },
  {
    "university": {
      "university": "University of York",
      "Location": "York",
      "Established": "1963",
      "Number of students": "17,900",
      "Tuition fee": "£9,250",
      "Degree powers": "Full",
      "location": {
        "lat": 53.9461089,
        "lng": -1.0517718
      }
    }
  },
  {
    "university": {
      "university": "York St John University",
      "Location": "York",
      "Established": "2006 (1841)",
      "Number of students": "5,940",
      "Tuition fee": "£9,250",
      "Degree powers": "Full",
      "location": {
        "lat": 53.9649139,
        "lng": -1.0800959
      }
    }
  }
]